#BESTPOSA,USB2_30,0,62.5,FINESTEERING,1834,414831.000,00000000,6145,7053;SOL_COMPUTED,SINGLE,37.87709483418,-122.25426884279,181.9588,-32.1000,WGS84,2.7765,2.7189,7.9695,"",0.000,0.000,7,6,0,0,0,06,0,03*a5ec9a90
#BESTPOSA,USB2_30,0,58.5,FINESTEERING,1834,414832.000,00000000,6145,7053;SOL_COMPUTED,SINGLE,37.87709433283,-122.25426836803,181.8574,-32.1000,WGS84,2.7763,2.7183,7.9687,"",0.000,0.000,7,6,0,0,0,06,0,03*f1524987
#BESTPOSA,USB2_30,0,57.0,FINESTEERING,1834,414833.000,00000000,6145,7053;SOL_COMPUTED,SINGLE,37.87709408323,-122.25426808519,181.7956,-32.1000,WGS84,2.7762,2.7178,7.9681,"",0.000,0.000,7,6,0,0,0,06,0,03*c38f65dd
#BESTPOSA,USB2_30,0,57.0,FINESTEERING,1834,414834.000,00000800,6145,7053;SOL_COMPUTED,SINGLE,37.87709378252,-122.25426790914,181.7470,-32.1000,WGS84,2.7760,2.7172,7.9673,"",0.000,0.000,7,6,0,0,0,06,0,03*3b89e49e
#BESTPOSA,USB2_30,0,63.0,FINESTEERING,1834,414835.000,00000800,6145,7053;SOL_COMPUTED,SINGLE,37.87709336540,-122.25426765785,181.6900,-32.1000,WGS84,2.7758,2.7166,7.9664,"",0.000,0.000,7,6,0,0,0,06,0,03*28032272
#BESTPOSA,USB2_30,0,63.5,FINESTEERING,1834,414836.000,00000800,6145,7053;SOL_COMPUTED,SINGLE,37.87709288954,-122.25426732693,181.6006,-32.1000
#BESTPOSA,USB2_30,0,62.5,FINESTEERING,1834,414831.000,00000000,6145,7053;SOL_COMPUTED,SINGLE,37.87709483418,-122.25426884279,181.9588,-32.1000,WGS84,2.7765,2.7189,7.9695,"",0.000,0.000,7,6,0,0,0,06,0,03*a5ec9a90
#BESTPOSA,USB2_30,0,58.5,FINESTEERING,1834,414832.000,00000000,6145,7053;SOL_COMPUTED,SINGLE,37.87709433283,-122.25426836803,181.8574,-32.1000,WGS84,2.7763,2.7183,7.9687,"",0.000,0.000,7,6,0,0,0,06,0,03*f1524987
#BESTPOSA,USB2_30,0,57.0,FINESTEERING,1834,414833.000,00000000,6145,7053;SOL_COMPUTED,SINGLE,37.87709408323,-122.25426808519,181.7956,-32.1000,WGS84,2.7762,2.7178,7.9681,"",0.000,0.000,7,6,0,0,0,06,0,03*c38f65dd
#BESTPOSA,USB2_30,0,57.0,FINESTEERING,1834,414834.000,00000800,6145,7053;SOL_COMPUTED,SINGLE,37.87709378252,-122.25426790914,181.7470,-32.1000,WGS84,2.7760,2.7172,7.9673,"",0.000,0.000,7,6,0,0,0,06,0,03*3b89e49e
#BESTPOSA,USB2_30,0,63.0,FINESTEERING,1834,414835.000,00000800,6145,7053;SOL_COMPUTED,SINGLE,37.87709336540,-122.25426765785,181.6900,-32.1000,WGS84,2.7758,2.7166,7.9664,"",0.000,0.000,7,6,0,0,0,06,0,03*28032272
#BESTPOSA,USB2_30,0,63.5,FINESTEERING,1834,414836.000,00000800,6145,7053;SOL_COMPUTED,SINGLE,37.87709288954,-122.25426732693,181.6006,-32.1000,WGS84,2.7757,2.7160,7.9657,"",0.000,0.000,7,6,0,0,0,06,0,03*1406d456
#BESTPOSA,USB2_30,0,63.5,FINESTEERING,1834,414837.000,00000800,6145,7053;SOL_COMPUTED,SINGLE,37.87709253078,-122.25426699199,181.5327,-32.1000,WGS84,2.7754,2.7154,7.9649,"",0.000,0.000,7,6,0,0,0,06,0,03*a2baac8a
#BESTPOSA,USB2_30,0,64.5,FINESTEERING,1834,414838.000,00000800,6145,7053;SOL_COMPUTED,SINGLE,37.87709240131,-122.25426685079,181.5172,-32.1000,WGS84,2.7753,2.7149,7.9641,"",0.000,0.000,7,6,0,0,0,06,0,03*6c153d83
#BESTPOSA,USB2_30,0,63.0,FINESTEERING,1834,414839.000,00000800,6145,7053;SOL_COMPUTED,SINGLE,37.87709210972,-122.25426680396,181.5212,-32.1000,WGS84,2.7748,2.7142,7.9627,"",0.000,0.000,7,6,0,0,0,06,0,03*9f7c5cdd
#BESTPOSA,USB2_30,0,62.5,FINESTEERING,1834,414840.000,00000800,6145,7053;SOL_COMPUTED,SINGLE,37.87709170890,-122.25426659633,181.4662,-32.1000,WGS84,2.7756,2.7141,7.9642,"",0.000,0.000,7,6,0,0,0,06,0,03*5dda1af9
#BESTPOSA,USB2_30,0,62.5,FINESTEERING,1834,414841.000,00000800,6145,7053;SOL_COMPUTED,SINGLE,37.87707690142,-122.25425198445,178.2681,-32.1000,WGS84,2.5099,2.8721,8.6335,"",0.000,0.000,7,7,0,0,0,02,0,01*4fbdf900
#BESTPOSA,USB2_30,0,64.5,FINESTEERING,1834,414842.000,00000800,6145,7053;SOL_COMPUTED,SINGLE,37.87707695177,-122.25425199045,178.2478,-32.1000,WGS84,2.5498,2.8769,8.6345,"",0.000,0.000,7,7,0,0,0,02,0,01*83617ec7
#BESTPOSA,USB2_30,0,62.5,FINESTEERING,1834,414831.000,00000000,6145,7053;SOL_COMPUTED,SINGLE,37.87709483418,-122.25426884279,181.9588,-32.1000,WGS84,2.7765,2.7189,7.9695,"",0.000,0.000,7,6,0,0,0,06,0,03*a5ec9a90
#BESTPOSA,USB2_30,0,58.5,FINESTEERING,1834,414832.000,00000000,6145,7053;SOL_COMPUTED,SINGLE,37.87709433283,-122.25426836803,181.8574,-32.1000,WGS84,2.7763,2.7183,7.9687,"",0.000,0.000,7,6,0,0,0,06,0,03*f1524987
#BESTPOSA,USB2_30,0,57.0,FINESTEERING,1834,414833.000,00000000,6145,7053;SOL_COMPUTED,SINGLE,37.87709408323,-122.25426808519,181.7956,-32.1000,WGS84,2.7762,2.7178,7.9681,"",0.000,0.000,7,6,0,0,0,06,0,03*c38f65dd
#BESTPOSA,USB2_30,0,57.0,FINESTEERING,1834,414834.000,00000800,6145,7053;SOL_COMPUTED,SINGLE,37.87709378252,-122.25426790914,181.7470,-32.1000,WGS84,2.7760,2.7172,7.9673,"",0.000,0.000,7,6,0,0,0,06,0,03*3b89e49e
#BESTPOSA,USB2_30,0,63.0,FINESTEERING,1834,414835.000,00000800,6145,7053;SOL_COMPUTED,SINGLE,37.87709336540,-122.25426765785,181.6900,-32.1000,WGS84,2.7758,2.7166,7.9664,"",0.000,0.000,7,6,0,0,0,06,0,03*28032272
#BESTPOSA,USB2_30,0,63.5,FINESTEERING,1834,414836.000,00000800,6145,7053;SOL_COMPUTED,SINGLE,37.87709288954,-122.25426732693,181.6006,-32.1000,WGS84,2.7757,2.7160,7.9657,"",0.000,0.000,7,6,0,0,0,06,0,03*1406d456
#BESTPOSA,USB2_30,0,63.5,FINESTEERING,1834,414837.000,00000800,6145,7053;SOL_COMPUTED,SINGLE,37.87709253078,-122.25426699199,181.5327,-32.1000,WGS84,2.7754,2.7154,7.9649,"",0.000,0.000,7,6,0,0,0,06,0,03*a2baac8a
#BESTPOSA,USB2_30,0,64.5,FINESTEERING,1834,414838.000,00000800,6145,7053;SOL_COMPUTED,SINGLE,37.87709240131,-122.25426685079,181.5172,-32.1000,WGS84,2.7753,2.7149,7.9641,"",0.000,0.000,7,6,0,0,0,06,0,03*6c153d83
#BESTPOSA,USB2_30,0,63.0,FINESTEERING,1834,414839.000,00000800,6145,7053;SOL_COMPUTED,SINGLE,37.87709210972,-122.25426680396,181.5212,-32.1000,WGS84,2.7748,2.7142,7.9627,"",0.000,0.000,7,6,0,0,0,06,0,03*9f7c5cdd
#BESTPOSA,USB2_30,0,62.5,FINESTEERING,1834,414840.000,00000800,6145,7053;SOL_COMPUTED,SINGLE,37.87709170890,-122.25426659633,181.4662,-32.1000,WGS84,2.7756,2.7141,7.9642,"",0.000,0.000,7,6,0,0,0,06,0,03*5dda1af9
#BESTPOSA,USB2_30,0,62.5,FINESTEERING,1834,414841.000,00000800,6145,7053;SOL_COMPUTED,SINGLE,37.87707690142,-122.25425198445,178.2681,-32.1000,WGS84,2.5099,2.8721,8.6335,"",0.000,0.000,7,7,0,0,0,02,0,01*4fbdf900
#BESTPOSA,USB2_30,0,64.5,FINESTEERING,1834,414842.000,00000800,6145,7053;SOL_COMPUTED,SINGLE,37.87707695177,-122.25425199045,178.2478,-32.1000,WGS84,2.5498,2.8769,8.6345,"",0.000,0.000,7,7,0,0,0,02,0,01*83617ec7
#BESTPOSA,USB2_30,0,64.0,FINESTEERING,1834,414843.000,00000800,6145,7053;SOL_COMPUTED,SINGLE,37.87707556250,-122.25425130522,178.1575,-32.1000,WGS84,2.5207,2.8723,8.6322,"",0.000,0.000,7,7,0,0,0,02,0,01*aaad1a05
#BESTPOSA,USB2_30,0,60.0,FINESTEERING,1834,414844.000,00000800,6145,7053;SOL_COMPUTED,SINGLE,37.87707458544,-122.25425092301,178.1417,-32.1000,WGS84,2.5096,2.8701,8.6303,"",0.000,0.000,7,7,0,0,0,02,0,01*4a904fbd
#BESTPOSA,USB2_30,0,60.0,FINESTEERING,1834,414845.000,00000800,6145,7053;SOL_COMPUTED,SINGLE,37.87707371839,-122.25425057574,178.0999,-32.1000,WGS84,2.5114,2.8697,8.6297,"",0.000,0.000,7,7,0,0,0,02,0,01*061ed885
#BESTPOSA,USB2_30,0,62.5,FINESTEERING,1834,414846.000,00000800,6145,7053;SOL_COMPUTED,SINGLE,37.87707263558,-122.25425003174,178.0043,-32.1000,WGS84,2.5107,2.8690,8.6287,"",0.000,0.000,7,7,0,0,0,02,0,01*49a83fca
#BESTPOSA,USB2_30,0,64.5,FINESTEERING,1834,414847.000,00000800,6145,7053;SOL_COMPUTED,SINGLE,37.87707192484,-122.25424981971,177.9824,-32.1000,WGS84,2.5123,2.8685,8.6276,"",0.000,0.000,7,7,0,0,0,02,0,01*b60111d6
#BESTPOSA,USB2_30,0,66.5,FINESTEERING,1834,414848.000,00000800,6145,7053;SOL_COMPUTED,SINGLE,37.87707172468,-122.25424973275,177.9178,-32.1000,WGS84,2.5341,2.8708,8.6274,"",0.000,0.000,7,7,0,0,0,02,0,01*40635e9e
#BESTPOSA,USB2_30,0,62.5,FINESTEERING,1834,414849.000,00000800,6145,7053;SOL_COMPUTED,SINGLE,37.87707127617,-122.25424950566,177.8707,-32.1000,WGS84,2.5540,2.8730,8.6275,"",0.000,0.000,7,7,0,0,0,02,0,01*8e742e1c
#BESTPOSA,USB2_30,0,62.5,FINESTEERING,1834,414850.000,00000800,6145,7053;SOL_COMPUTED,SINGLE,37.87707068474,-122.25424925034,177.7822,-32.1000,WGS84,2.5564,2.8727,8.6267,"",0.000,0.000,7,7,0,0,0,02,0,01*709dfcfb
#BESTPOSA,USB2_30,0,64.5,FINESTEERING,1834,414851.000,00000800,6145,7053;SOL_COMPUTED,SINGLE,37.87706922392,-122.25424866313,177.7250,-32.1000,WGS84,2.5368,2.8693,8.6242,"",0.000,0.000,7,7,0,0,0,02,0,01*a4577571
#BESTPOSA,USB2_30,0,63.5,FINESTEERING,1834,414852.000,00000800,6145,7053;SOL_COMPUTED,SINGLE,37.87706757238,-122.25424801134,177.6610,-32.1000,WGS84,2.5127,2.8653,8.6222,"",0.000,0.000,7,7,0,0,0,02,0,01*3f18b9c6
#BESTPOSA,USB2_30,0,63.5,FINESTEERING,1834,414853.000,00000800,6145,7053;SOL_COMPUTED,SINGLE,37.87706678553,-122.25424772288,177.6019,-32.1000,WGS84,2.5151,2.8650,8.6212,"",0.000,0.000,7,7,0,0,0,02,0,01*791bb362
#BESTPOSA,USB2_30,0,63.5,FINESTEERING,1834,414854.000,00000800,6145,7053;SOL_COMPUTED,SINGLE,37.87706602664,-122.25424738021,177.5009,-32.1000,WGS84,2.5105,2.8637,8.6196,"",0.000,0.000,7,7,0,0,0,02,0,01*233d85ec
#BESTPOSA,USB2_30,0,62.5,FINESTEERING,1834,414831.000,00000000,6145,7053;SOL_COMPUTED,SINGLE,37.87709483418,-122.25426884279,181.9588,-32.1000,WGS84,2.7765,2.7189,7.9695,"",0.000,0.000,7,6,0,0,0,06,0,03*a5ec9a90
#BESTPOSA,USB2_30,0,58.5,FINESTEERING,1834,414832.000,00000000,6145,7053;SOL_COMPUTED,SINGLE,37.87709433283,-122.25426836803,181.8574,-32.1000,WGS84,2.7763,2.7183,7.9687,"",0.000,0.000,7,6,0,0,0,06,0,03*f1524987
#BESTPOSA,USB2_30,0,57.0,FINESTEERING,1834,414833.000,00000000,6145,7053;SOL_COMPUTED,SINGLE,37.87709408323,-122.25426808519,181.7956,-32.1000,WGS84,2.7762,2.7178,7.9681,"",0.000,0.000,7,6,0,0,0,06,0,03*c38f65dd
#BESTPOSA,USB2_30,0,57.0,FINESTEERING,1834,414834.000,00000800,6145,7053;SOL_COMPUTED,SINGLE,37.87709378252,-122.25426790914,181.7470,-32.1000,WGS84,2.7760,2.7172,7.9673,"",0.000,0.000,7,6,0,0,0,06,0,03*3b89e49e
#BESTPOSA,USB2_30,0,63.0,FINESTEERING,1834,414835.000,00000800,6145,7053;SOL_COMPUTED,SINGLE,37.87709336540,-122.25426765785,181.6900,-32.1000,WGS84,2.7758,2.7166,7.9664,"",0.000,0.000,7,6,0,0,0,06,0,03*28032272
#BESTPOSA,USB2_30,0,63.5,FINESTEERING,1834,414836.000,00000800,6145,7053;SOL_COMPUTED,SINGLE,37.87709288954,-122.25426732693,181.6006,-32.1000,WGS84,2.7757,2.7160,7.9657,"",0.000,0.000,7,6,0,0,0,06,0,03*1406d456
#BESTPOSA,USB2_30,0,63.5,FINESTEERING,1834,414837.000,00000800,6145,7053;SOL_COMPUTED,SINGLE,37.87709253078,-122.25426699199,181.5327,-32.1000,WGS84,2.7754,2.7154,7.9649,"",0.000,0.000,7,6,0,0,0,06,0,03*a2baac8a
#BESTPOSA,USB2_30,0,64.5,FINESTEERING,1834,414838.000,00000800,6145,7053;SOL_COMPUTED,SINGLE,37.87709240131,-122.25426685079,181.5172,-32.1000,WGS84,2.7753,2.7149,7.9641,"",0.000,0.000,7,6,0,0,0,06,0,03*6c153d83
#BESTPOSA,USB2_30,0,63.0,FINESTEERING,1834,414839.000,00000800,6145,7053;SOL_COMPUTED,SINGLE,37.87709210972,-122.25426680396,181.5212,-32.1000,WGS84,2.7748,2.7142,7.9627,"",0.000,0.000,7,6,0,0,0,06,0,03*9f7c5cdd
#BESTPOSA,USB2_30,0,62.5,FINESTEERING,1834,414840.000,00000800,6145,7053;SOL_COMPUTED,SINGLE,37.87709170890,-122.25426659633,181.4662,-32.1000,WGS84,2.7756,2.7141,7.9642,"",0.000,0.000,7,6,0,0,0,06,0,03*5dda1af9
#BESTPOSA,USB2_30,0,62.5,FINESTEERING,1834,414841.000,00000800,6145,7053;SOL_COMPUTED,SINGLE,37.87707690142,-122.25425198445,178.2681,-32.1000,WGS84,2.5099,2.8721,8.6335,"",0.000,0.000,7,7,0,0,0,02,0,01*4fbdf900
#BESTPOSA,USB2_30,0,64.5,FINESTEERING,1834,414842.000,00000800,6145,7053;SOL_COMPUTED,SINGLE,37.87707695177,-122.25425199045,178.2478,-32.1000,WGS84,2.5498,2.8769,8.6345,"",0.000,0.000,7,7,0,0,0,02,0,01*83617ec7
#BESTPOSA,USB2_30,0,64.0,FINESTEERING,1834,414843.000,00000800,6145,7053;SOL_COMPUTED,SINGLE,37.87707556250,-122.25425130522,178.1575,-32.1000,WGS84,2.5207,2.8723,8.6322,"",0.000,0.000,7,7,0,0,0,02,0,01*aaad1a05
#BESTPOSA,USB2_30,0,60.0,FINESTEERING,1834,414844.000,00000800,6145,7053;SOL_COMPUTED,SINGLE,37.87707458544,-122.25425092301,178.1417,-32.1000,WGS84,2.5096,2.8701,8.6303,"",0.000,0.000,7,7,0,0,0,02,0,01*4a904fbd
#BESTPOSA,USB2_30,0,60.0,FINESTEERING,1834,414845.000,00000800,6145,7053;SOL_COMPUTED,SINGLE,37.87707371839,-122.25425057574,178.0999,-32.1000,WGS84,2.5114,2.8697,8.6297,"",0.000,0.000,7,7,0,0,0,02,0,01*061ed885
#BESTPOSA,USB2_30,0,62.5,FINESTEERING,1834,414846.000,00000800,6145,7053;SOL_COMPUTED,SINGLE,37.87707263558,-122.25425003174,178.0043,-32.1000,WGS84,2.5107,2.8690,8.6287,"",0.000,0.000,7,7,0,0,0,02,0,01*49a83fca
#BESTPOSA,USB2_30,0,64.5,FINESTEERING,1834,414847.000,00000800,6145,7053;SOL_COMPUTED,SINGLE,37.87707192484,-122.25424981971,177.9824,-32.1000,WGS84,2.5123,2.8685,8.6276,"",0.000,0.000,7,7,0,0,0,02,0,01*b60111d6
#BESTPOSA,USB2_30,0,66.5,FINESTEERING,1834,414848.000,00000800,6145,7053;SOL_COMPUTED,SINGLE,37.87707172468,-122.25424973275,177.9178,-32.1000,WGS84,2.5341,2.8708,8.6274,"",0.000,0.000,7,7,0,0,0,02,0,01*40635e9e
#BESTPOSA,USB2_30,0,62.5,FINESTEERING,1834,414849.000,00000800,6145,7053;SOL_COMPUTED,SINGLE,37.87707127617,-122.25424950566,177.8707,-32.1000,WGS84,2.5540,2.8730,8.6275,"",0.000,0.000,7,7,0,0,0,02,0,01*8e742e1c
#BESTPOSA,USB2_30,0,62.5,FINESTEERING,1834,414850.000,00000800,6145,7053;SOL_COMPUTED,SINGLE,37.87707068474,-122.25424925034,177.7822,-32.1000,WGS84,2.5564,2.8727,8.6267,"",0.000,0.000,7,7,0,0,0,02,0,01*709dfcfb
#BESTPOSA,USB2_30,0,64.5,FINESTEERING,1834,414851.000,00000800,6145,7053;SOL_COMPUTED,SINGLE,37.87706922392,-122.25424866313,177.7250,-32.1000,WGS84,2.5368,2.8693,8.6242,"",0.000,0.000,7,7,0,0,0,02,0,01*a4577571
#BESTPOSA,USB2_30,0,63.5,FINESTEERING,1834,414852.000,00000800,6145,7053;SOL_COMPUTED,SINGLE,37.87706757238,-122.25424801134,177.6610,-32.1000,WGS84,2.5127,2.8653,8.6222,"",0.000,0.000,7,7,0,0,0,02,0,01*3f18b9c6
#BESTPOSA,USB2_30,0,63.5,FINESTEERING,1834,414853.000,00000800,6145,7053;SOL_COMPUTED,SINGLE,37.87706678553,-122.25424772288,177.6019,-32.1000,WGS84,2.5151,2.8650,8.6212,"",0.000,0.000,7,7,0,0,0,02,0,01*791bb362
#BESTPOSA,USB2_30,0,63.5,FINESTEERING,1834,414854.000,00000800,6145,7053;SOL_COMPUTED,SINGLE,37.87706602664,-122.25424738021,177.5009,-32.1000,WGS84,2.5105,2.8637,8.6196,"",0.000,0.000,7,7,0,0,0,02,0,01*233d85ec
#BESTPOSA,USB2_30,0,63.5,FINESTEERING,1834,414855.000,00000800,6145,7053;SOL_COMPUTED,SINGLE,37.87706618409,-122.25424756825,177.4980,-32.1000,WGS84,2.5349,2.8664,8.6199,"",0.000,0.000,7,7,0,0,0,02,0,01*85faf82a
#BESTPOSA,USB2_30,0,64.5,FINESTEERING,1834,414856.000,00000800,6145,7053;SOL_COMPUTED,SINGLE,37.87706406523,-122.25424479551,173.9671,-32.1000,WGS84,2.7712,2.7042,7.9482,"",0.000,0.000,7,6,0,0,0,06,0,03*57fbfc2f
#BESTPOSA,USB2_30,0,63.5,FINESTEERING,1834,414857.000,00000800,6145,7053;SOL_COMPUTED,SINGLE,37.87706396602,-122.25424486455,173.9578,-32.1000,WGS84,2.7709,2.7035,7.9472,"",0.000,0.000,7,6,0,0,0,06,0,03*22dec275
#BESTPOSA,USB2_30,0,63.5,FINESTEERING,1834,414858.000,00000800,6145,7053;SOL_COMPUTED,SINGLE,37.87706389150,-122.25424487746,173.9383,-32.1000,WGS84,2.7709,2.7030,7.9467,"",0.000,0.000,7,6,0,0,0,06,0,03*a46badcd
#BESTPOSA,USB2_30,0,59.5,FINESTEERING,1834,414859.000,00000800,6145,7053;SOL_COMPUTED,SINGLE,37.87706386351,-122.25424509934,173.9546,-32.1000,WGS84,2.7706,2.7024,7.9456,"",0.000,0.000,7,6,0,0,0,06,0,03*0a3c088c
#BESTPOSA,USB2_30,0,59.5,FINESTEERING,1834,414860.000,00000800,6145,7053;SOL_COMPUTED,SINGLE,37.87706384760,-122.25424522660,173.9471,-32.1000,WGS84,2.7704,2.7018,7.9449,"",0.000,0.000,7,6,0,0,0,06,0,03*ac8beaee
#BESTPOSA,USB2_30,0,64.0,FINESTEERING,1834,414861.000,00000800,6145,7053;SOL_COMPUTED,SINGLE,37.87706362241,-122.25424523020,173.9026,-32.1000,WGS84,2.7703,2.7013,7.9442,"",0.000,0.000,7,6,0,0,0,06,0,03*c9be46b0
#BESTPOSA,USB2_30,0,64.0,FINESTEERING,1834,414862.000,00000800,6145,7053;SOL_COMPUTED,SINGLE,37.87706344955,-122.25424527909,173.9140,-32.1000,WGS84,2.7702,2.7008,7.9435,"",0.000,0.000,7,6,0,0,0,06,0,03*57d80367
#BESTPOSA,USB2_30,0,67.0,FINESTEERING,1834,414863.000,00000800,6145,7053;SOL_COMPUTED,SINGLE,37.87706335618,-122.25424536932,173.8664,-32.1000,WGS84,2.7698,2.7001,7.9424,"",0.000,0.000,7,6,0,0,0,06,0,03*18f10a53
#BESTPOSA,USB2_30,0,66.0,FINESTEERING,1834,414864.000,00000800,6145,7053;SOL_COMPUTED,SINGLE,37.87706324921,-122.25424542222,173.8323,-32.1000,WGS84,2.7697,2.6995,7.9416,"",0.000,0.000,7,6,0,0,0,06,0,03*c523a1db
#BESTPOSA,USB2_30,0,61.0,FINESTEERING,1834,414865.000,00000800,6145,7053;SOL_COMPUTED,SINGLE,37.87706315692,-122.25424539496,173.7839,-32.1000,WGS84,2.7695,2.6990,7.9409,"",0.000,0.000,7,6,0,0,0,06,0,03*eeb19df3
#BESTPOSA,USB2_30,0,61.0,FINESTEERING,1834,414866.000,00000800,6145,7053;SOL_COMPUTED,SINGLE,37.87706324581,-122.25424563994,173.8137,-32.1000,WGS84,2.7694,2.6984,7.9402,"",0.000,0.000,7,6,0,0,0,06,0,03*187dff42
#BESTPOSA,USB2_30,0,64.5,FINESTEERING,1834,414867.000,00000800,6145,7053;SOL_COMPUTED,SINGLE,37.87706342308,-122.25424590835,173.8406,-32.1000,WGS84,2.7693,2.6979,7.9397,"",0.000,0.000,7,6,0,0,0,06,0,03*e2085d5a
#BESTPOSA,USB2_30,0,64.5,FINESTEERING,1834,414868.000,00000800,6145,7053;SOL_COMPUTED,SINGLE,37.87706345520,-122.25424599971,173.8060,-32.1000,WGS84,2.7692,2.6974,7.9389,"",0.000,0.000,7,6,0,0,0,06,0,03*9eb4c344
#BESTPOSA,USB2_30,0,62.5,FINESTEERING,1834,414869.000,00000800,6145,7053;SOL_COMPUTED,SINGLE,37.87706349565,-122.25424619025,173.8272,-32.1000,WGS84,2.7689,2.6968,7.9380,"",0.000,0.000,7,6,0,0,0,06,0,03*1305195d
#BESTPOSA,USB2_30,0,62.5,FINESTEERING,1834,414870.000,00000800,6145,7053;SOL_COMPUTED,SINGLE,37.87706343608,-122.25424625198,173.8109,-32.1000,WGS84,2.7686,2.6961,7.9369,"",0.000,0.000,7,6,0,0,0,06,0,03*8c7d36d0
#BESTPOSA,USB2_30,0,62.0,FINESTEERING,1834,414871.000,00000800,6145,7053;SOL_COMPUTED,SINGLE,37.87706361411,-122.25424653171,173.8620,-32.1000,WGS84,2.7685,2.6956,7.9362,"",0.000,0.000,7,6,0,0,0,06,0,03*21f9a6a6
#BESTPOSA,USB2_30,0,62.0,FINESTEERING,1834,414872.000,00000800,6145,7053;SOL_COMPUTED,SINGLE,37.87706365467,-122.25424663166,173.8779,-32.1000,WGS84,2.7683,2.6950,7.9354,"",0.000,0.000,7,6,0,0,0,06,0,03*c888fbf6
#BESTPOSA,USB2_30,0,65.5,FINESTEERING,1834,414873.000,00000800,6145,7053;SOL_COMPUTED,SINGLE,37.87706376750,-122.25424675895,173.8928,-32.1000,WGS84,2.7681,2.6944,7.9344,"",0.000,0.000,7,6,0,0,0,06,0,03*691a4267
#BESTPOSA,USB2_30,0,66.5,FINESTEERING,1834,414874.000,00000800,6145,7053;SOL_COMPUTED,SINGLE,37.87706396300,-122.25424705238,173.9676,-32.1000,WGS84,2.7678,2.6938,7.9335,"",0.000,0.000,7,6,0,0,0,06,0,03*5603ad09
#BESTPOSA,USB2_30,0,65.5,FINESTEERING,1834,414875.000,00000800,6145,7053;SOL_COMPUTED,SINGLE,37.87706418340,-122.25424722515,173.9972,-32.1000,WGS84,2.7678,2.6933,7.9331,"",0.000,0.000,7,6,0,0,0,06,0,03*936f7e6d
#BESTPOSA,USB2_30,0,64.0,FINESTEERING,1834,414876.000,00000800,6145,7053;SOL_COMPUTED,SINGLE,37.87706420601,-122.25424726222,173.9964,-32.1000,WGS84,2.7675,2.6927,7.9320,"",0.000,0.000,7,6,0,0,0,06,0,03*80235ba6
#BESTPOSA,USB2_30,0,64.0,FINESTEERING,1834,414877.000,00000800,6145,7053;SOL_COMPUTED,SINGLE,37.87706422348,-122.25424727043,173.9869,-32.1000,WGS84,2.7674,2.6922,7.9315,"",0.000,0.000,7,6,0,0,0,06,0,03*3cd3c3b6
#BESTPOSA,USB2_30,0,65.5,FINESTEERING,1834,414878.000,00000800,6145,7053;SOL_COMPUTED,SINGLE,37.87706452091,-122.25424743214,174.0157,-32.1000,WGS84,2.7674,2.6917,7.9310,"",0.000,0.000,7,6,0,0,0,06,0,03*31e448a7
